{"version": 0.6, "generator": "Overpass API 0.7.59.4 36d058c8", "osm3s": {"timestamp_osm_base": "2023-03-09T19:13:53Z", "copyright": "The data included in this document is from www.openstreetmap.org. The data is made available under ODbL."}, "elements": [{"type": "node", "id": 571265604, "lat": 51.0371904, "lon": 13.2972591}, {"type": "node", "id": 571268405, "lat": 51.0361718, "lon": 13.2962694}, {"type": "node", "id": 571268406, "lat": 51.0361325, "lon": 13.2964089}, {"type": "node", "id": 571268407, "lat": 51.0361443, "lon": 13.2969277}, {"type": "node", "id": 571268408, "lat": 51.0366045, "lon": 13.2975853}, {"type": "node", "id": 571270679, "lat": 51.0366221, "lon": 13.2975596}, {"type": "node", "id": 571270681, "lat": 51.0367975, "lon": 13.2973879}, {"type": "node", "id": 571270682, "lat": 51.0369531, "lon": 13.2971952}, {"type": "node", "id": 571271098, "lat": 51.0372873, "lon": 13.2957605}, {"type": "node", "id": 571271100, "lat": 51.0372478, "lon": 13.2957008}, {"type": "node", "id": 571271101, "lat": 51.037145, "lon": 13.2955426}, {"type": "node", "id": 571271102, "lat": 51.0370269, "lon": 13.2953682}, {"type": "node", "id": 571271104, "lat": 51.0368532, "lon": 13.2951375}, {"type": "node", "id": 571271105, "lat": 51.0368009, "lon": 13.2951161}, {"type": "node", "id": 571271106, "lat": 51.0367553, "lon": 13.2951134}, {"type": "node", "id": 571271108, "lat": 51.0367156, "lon": 13.2951442}, {"type": "node", "id": 571271109, "lat": 51.0366694, "lon": 13.2951955}, {"type": "node", "id": 571271110, "lat": 51.0365757, "lon": 13.2953617}, {"type": "node", "id": 571271112, "lat": 51.0364686, "lon": 13.2955452}, {"type": "node", "id": 571271113, "lat": 51.0363522, "lon": 13.2958215}, {"type": "node", "id": 571271114, "lat": 51.036246, "lon": 13.296071}, {"type": "node", "id": 2467972457, "lat": 51.0361357, "lon": 13.2967613}, {"type": "node", "id": 3581519437, "lat": 51.0376459, "lon": 13.2961282}, {"type": "node", "id": 3581520493, "lat": 51.037034, "lon": 13.297155}, {"type": "node", "id": 3581520633, "lat": 51.0371039, "lon": 13.2972087}, {"type": "node", "id": 3581520655, "lat": 51.0373382, "lon": 13.2957278}, {"type": "node", "id": 3581520678, "lat": 51.0374627, "lon": 13.2966131}, {"type": "node", "id": 3581520687, "lat": 51.0375522, "lon": 13.2964645}, {"type": "way", "id": 352376725, "nodes": [3581519437, 3581520687, 3581520678, 571265604, 3581520633, 3581520493, 571270682, 571270681, 571270679, 571268408, 571268407, 2467972457, 571268406, 571268405, 571271114, 571271113, 571271112, 571271110, 571271109, 571271108, 571271106, 571271105, 571271104, 571271102, 571271101, 571271100, 571271098, 3581520655, 3581519437], "tags": {"addr:city": "Nossen", "addr:country": "DE", "addr:housenumber": "72", "addr:postcode": "01683", "addr:street": "Augustusberg", "addr:suburb": "Augustusberg", "atmotorway": "no", "capacity:restaurant": "90", "capacity:shower": "6", "capacity:smoker_free": "existing", "capacity:toilets": "7", "capacity:truck": "50", "capacity:truck_diesel_pumps": "5", "charging_station": "yes", "contact:fax": "+49 35242 67240", "contact:phone": "+4935242 67238", "copier": "yes", "event": "yes", "fax": "yes", "highway": "services", "lit": "24/7", "name": "Autohof Nossen", "operator": "Herr Donner", "payment:american_express": "yes", "payment:bancomat": "yes", "payment:diners_club": "yes", "payment:euroshell": "yes", "payment:mastercard": "yes", "payment:uta": "yes", "payment:visa": "yes", "restaurant": "yes", "sb_vacuum_cleaners": "yes", "shop": "convenience", "toilets": "yes", "truck_clearance": "yes", "tv": "yes", "wake:up": "yes"}}]}