{"version": 0.6, "generator": "Overpass API 0.7.59.4 36d058c8", "osm3s": {"timestamp_osm_base": "2023-03-09T21:05:08Z", "copyright": "The data included in this document is from www.openstreetmap.org. The data is made available under ODbL."}, "elements": [{"type": "node", "id": 3625112190, "lat": 51.2020232, "lon": 9.4701135}, {"type": "node", "id": 3625113717, "lat": 51.2022983, "lon": 9.4689436}, {"type": "node", "id": 3625113768, "lat": 51.2026701, "lon": 9.4679072}, {"type": "node", "id": 3625113999, "lat": 51.2038069, "lon": 9.4680991}, {"type": "node", "id": 3625114031, "lat": 51.2041564, "lon": 9.4690369}, {"type": "node", "id": 3625114043, "lat": 51.2042739, "lon": 9.4687999}, {"type": "node", "id": 3625483998, "lat": 51.2025761, "lon": 9.4702569}, {"type": "node", "id": 3625484010, "lat": 51.2027297, "lon": 9.4677306}, {"type": "node", "id": 3625484019, "lat": 51.2030045, "lon": 9.4703536}, {"type": "node", "id": 3625484021, "lat": 51.2030463, "lon": 9.4678156}, {"type": "node", "id": 3625484022, "lat": 51.2031696, "lon": 9.4704219}, {"type": "node", "id": 3625484023, "lat": 51.2032172, "lon": 9.4704676}, {"type": "node", "id": 3625484032, "lat": 51.2035823, "lon": 9.4700067}, {"type": "node", "id": 3625484043, "lat": 51.2041485, "lon": 9.4683542}, {"type": "node", "id": 3625484051, "lat": 51.2043784, "lon": 9.4685543}, {"type": "node", "id": 3625490837, "lat": 51.2019137, "lon": 9.4700851}, {"type": "node", "id": 5697114148, "lat": 51.2043348, "lon": 9.4686569}, {"type": "node", "id": 5697129987, "lat": 51.2022841, "lon": 9.4689856}, {"type": "node", "id": 5697131397, "lat": 51.2026818, "lon": 9.4678724}, {"type": "node", "id": 5697131815, "lat": 51.204295, "lon": 9.4687503}, {"type": "way", "id": 357225540, "nodes": [3625483998, 3625112190, 3625490837, 5697129987, 3625113717, 3625113768, 5697131397, 3625484010, 3625484021, 3625113999, 3625484043, 3625484051, 5697114148, 5697131815, 3625114043, 3625114031, 3625484032, 3625484023, 3625484022, 3625484019, 3625483998], "tags": {"addr:city": "Guxhagen", "addr:country": "DE", "addr:housenumber": "2", "addr:postcode": "34302", "addr:street": "Grifter Stra\u00dfe", "baby_change": "yes", "bistro": "yes", "capacity:car": "50", "capacity:restaurant": "200", "capacity:smoker_free": "existing", "capacity:truck": "90", "capacity:truck_diesel_pumps": "existing", "changing_table": "yes", "contact:email": "info@eurorastpark-guxhagen.de", "contact:fax": "+49 5665 800070", "contact:phone": "+49 5665 8000712", "contact:website": "http://www.eurorastpark.de", "copier": "yes", "fitness": "yes", "highway": "services", "internet_access": "terminal", "lit": "24/7", "name": "Euro Rastpark Guxhagen", "operator": "Thomas G\u00f6ttler", "payment:american_express": "yes", "payment:aral_card": "yes", "payment:diners_club": "yes", "payment:dkv": "yes", "payment:girocard": "yes", "payment:mastercard": "yes", "payment:routex": "yes", "payment:uta": "yes", "payment:visa": "yes", "payment:westfalen_card": "yes", "restaurant": "yes", "shop": "yes", "shower": "yes", "toilets": "yes", "tv": "yes", "wheelchair": "yes"}}]}