{"version": 0.6, "generator": "Overpass API 0.7.59.2 0994154d", "osm3s": {"timestamp_osm_base": "2023-03-09T19:47:24Z", "copyright": "The data included in this document is from www.openstreetmap.org. The data is made available under ODbL."}, "elements": [{"type": "node", "id": 918416608, "lat": 48.6730877, "lon": 10.8258947}, {"type": "node", "id": 918416614, "lat": 48.6738859, "lon": 10.8250429}, {"type": "node", "id": 918416636, "lat": 48.6730766, "lon": 10.8258467}, {"type": "node", "id": 918416640, "lat": 48.6728629, "lon": 10.8249243}, {"type": "node", "id": 918416654, "lat": 48.6735232, "lon": 10.8257124}, {"type": "node", "id": 918416680, "lat": 48.673531, "lon": 10.824608}, {"type": "node", "id": 2247741902, "lat": 48.6734815, "lon": 10.8246279}, {"type": "node", "id": 2247741903, "lat": 48.673638, "lon": 10.8251374}, {"type": "node", "id": 2247741904, "lat": 48.6737976, "lon": 10.82538}, {"type": "node", "id": 2247741905, "lat": 48.6736672, "lon": 10.8255663}, {"type": "node", "id": 4593126105, "lat": 48.5977843, "lon": 10.8412555}, {"type": "node", "id": 4593126106, "lat": 48.5989302, "lon": 10.8410329}, {"type": "node", "id": 4593126107, "lat": 48.598657, "lon": 10.8400565}, {"type": "node", "id": 8285332908, "lat": 48.5975342, "lon": 10.8403328}, {"type": "node", "id": 9952716974, "lat": 48.6734961, "lon": 10.8251285, "tags": {"amenity": "fuel", "area": "yes", "brand": "Shell", "brand:wikidata": "Q110716465", "highway": "services", "name": "Shell", "operator": "Kreutzmann GmbH & Co. KG", "website": "Shell V-Power Racing\t\u20ac2.119/L Shell V-Power Diesel\t\u20ac2.289/L Shell Super FuelSave 95\t\u20ac1.859/L Shell Super FuelSave E10\t\u20ac1.799/L Shell Diesel FuelSave\t\u20ac2.059/L Shell Fuelsave Truck Diesel\t\u20ac2.049/L Shell AutoGas (LPG)"}}, {"type": "node", "id": 9952716982, "lat": 48.6732405, "lon": 10.8249853, "tags": {"amenity": "fuel", "area": "yes", "brand": "Shell", "brand:wikidata": "Q110716465", "highway": "services", "name": "Shell LKW", "operator": "Kreutzmann GmbH & Co. KG", "website": "https://find.shell.com/de/fuel/11315859-euro-rastpark-asbach-baumenheim"}}, {"type": "way", "id": 78189867, "nodes": [918416680, 2247741903, 918416614, 2247741904, 2247741905, 918416654, 918416608, 918416636, 918416640, 2247741902, 918416680], "tags": {"addr:city": "Asbach-B\u00e4umenheim", "addr:housenumber": "3", "addr:postcode": "86663", "addr:street": "B\u00fcrgermeister-M\u00fcller-Stra\u00dfe", "atmotorway": "no", "contact:fax": "+49 906 70 92 86 20", "contact:phone": "+49 906 70 92 86 0", "contact:website": "http://www.autohof-asbach.de/index.php/kontakt", "highway": "services", "name": "Euro Rastpark Asbach-B\u00e4umenheim", "operator": "Kreutzmann GmbH & Co. KG"}}, {"type": "way", "id": 464167975, "nodes": [4593126107, 4593126106, 4593126105, 8285332908, 4593126107], "tags": {"highway": "services", "lit": "yes", "name": "Total Nordendorf", "toilets": "yes"}}]}