{"version": 0.6, "generator": "Overpass API 0.7.59.4 36d058c8", "osm3s": {"timestamp_osm_base": "2023-03-09T20:15:39Z", "copyright": "The data included in this document is from www.openstreetmap.org. The data is made available under ODbL."}, "elements": [{"type": "node", "id": 3550862471, "lat": 51.6162429, "lon": 7.8485375}, {"type": "node", "id": 3550862476, "lat": 51.616276, "lon": 7.8491897}, {"type": "node", "id": 3550862477, "lat": 51.6162847, "lon": 7.8493621}, {"type": "node", "id": 3550863197, "lat": 51.6170486, "lon": 7.8482309}, {"type": "node", "id": 3550863198, "lat": 51.6170893, "lon": 7.848128}, {"type": "node", "id": 3550863204, "lat": 51.6171682, "lon": 7.8480944}, {"type": "node", "id": 3550863205, "lat": 51.6171757, "lon": 7.8482213}, {"type": "node", "id": 3550863207, "lat": 51.6172054, "lon": 7.8483786}, {"type": "node", "id": 3550863208, "lat": 51.6171667, "lon": 7.8490471}, {"type": "node", "id": 3550863216, "lat": 51.6172368, "lon": 7.8488607}, {"type": "node", "id": 3550863268, "lat": 51.6168485, "lon": 7.8489059, "tags": {"addr:city": "Hamm", "addr:country": "DE", "addr:housenumber": "390", "addr:postcode": "59069", "addr:street": "Werler Stra\u00dfe", "addr:suburb": "Rhynern", "atmotorway": "no", "capacity:shower": "1", "capacity:smoker_free": "existing", "capacity:truck": "20", "capacity:truck_diesel_pumps": "1", "contact:fax": "+49 2385 2393", "contact:phone": "+49 2385 2393", "highway": "services", "name": "Truckstop Hamm", "operator": "Siegfried Mahler", "payment:american_express": "yes", "payment:diners_club": "yes", "payment:routex": "yes", "payment:uta": "yes", "payment:visa": "yes", "restaurant": "yes", "shop": "yes", "toilets": "yes"}}, {"type": "way", "id": 127346043, "nodes": [3550863197, 3550863198, 3550863204, 3550863205, 3550863207, 3550863216, 3550863208, 3550862477, 3550862476, 3550862471, 3550863197], "tags": {"area": "yes", "highway": "services", "toilets": "no"}}]}