{"version": 0.6, "generator": "Overpass API 0.7.59.4 36d058c8", "osm3s": {"timestamp_osm_base": "2023-03-09T21:05:08Z", "copyright": "The data included in this document is from www.openstreetmap.org. The data is made available under ODbL."}, "elements": [{"type": "node", "id": 677494645, "lat": 50.8872447, "lon": 6.9245208}, {"type": "node", "id": 677494646, "lat": 50.8870616, "lon": 6.9252319}, {"type": "node", "id": 677494647, "lat": 50.8887933, "lon": 6.9267258}, {"type": "node", "id": 677494649, "lat": 50.8893371, "lon": 6.9254603}, {"type": "node", "id": 677494651, "lat": 50.8897441, "lon": 6.9245022}, {"type": "node", "id": 677494652, "lat": 50.8881387, "lon": 6.9239474}, {"type": "node", "id": 677494653, "lat": 50.8877312, "lon": 6.9242036}, {"type": "node", "id": 677494654, "lat": 50.8876562, "lon": 6.9243478}, {"type": "node", "id": 677494656, "lat": 50.8875848, "lon": 6.9245871}, {"type": "node", "id": 677494657, "lat": 50.8874632, "lon": 6.9246605}, {"type": "node", "id": 865300634, "lat": 50.8874803, "lon": 6.9255118}, {"type": "node", "id": 865300651, "lat": 50.887908, "lon": 6.9259389}, {"type": "node", "id": 2400368008, "lat": 50.8885677, "lon": 6.9240767}, {"type": "node", "id": 2400368020, "lat": 50.8892654, "lon": 6.9243247}, {"type": "node", "id": 2400368024, "lat": 50.8893599, "lon": 6.9243559}, {"type": "node", "id": 3574773877, "lat": 50.8870978, "lon": 6.9250916}, {"type": "node", "id": 3574773878, "lat": 50.8870979, "lon": 6.9252561}, {"type": "node", "id": 3574773887, "lat": 50.8872826, "lon": 6.924545}, {"type": "node", "id": 3574776102, "lat": 50.8875637, "lon": 6.9245999}, {"type": "node", "id": 3574776154, "lat": 50.8882175, "lon": 6.9239332}, {"type": "node", "id": 3574776225, "lat": 50.8888698, "lon": 6.9265477}, {"type": "node", "id": 3574776242, "lat": 50.8890426, "lon": 6.9242433}, {"type": "node", "id": 3574776285, "lat": 50.8897321, "lon": 6.9246}, {"type": "way", "id": 53644421, "nodes": [677494645, 3574773877, 677494646, 3574773878, 865300634, 865300651, 677494647, 3574776225, 677494649, 3574776285, 677494651, 2400368024, 2400368020, 3574776242, 2400368008, 3574776154, 677494652, 677494653, 677494654, 677494656, 3574776102, 677494657, 3574773887, 677494645], "tags": {"addr:city": "K\u00f6ln", "addr:country": "DE", "addr:housenumber": "1", "addr:postcode": "50997", "addr:street": "Am Eifeltor", "addr:suburb": "Klettenberg", "atmotorway": "no", "capacity:restaurant": "150", "capacity:shower": "4", "capacity:smoker_free": "existing", "capacity:toilets": "6", "capacity:truck": "160", "capacity:truck_diesel_pumps": "6", "copier": "yes", "email": "info@autohof-eifeltor.de", "fast_food": "yes", "fax": "+49 221 9362323", "highway": "services", "internet_access": "terminal", "lit": "24/7", "name": "SVG Autohof K\u00f6ln-Eifeltor", "opening_hours": "24/7", "payment:bancomat": "yes", "payment:dkv": "yes", "payment:uta": "yes", "phone": "+49 221 9362443", "restaurant": "yes", "shop": "yes", "toilets": "yes", "website": "https://www.autohof-eifeltor.de/"}}]}